{
  "resource": [
    {
      "title": "All Saints Episcopal Church",
      "address": "4033 SE Woodstock Blvd. Portland, OR 97202",
      "phone": "Main Line: 503-777-3829",
      "description": "Hot meals.",
      "hours": "Hours: 11:30 a.m. Sat.",
      "type": "Ready To Eat"
    },
    {
      "title": "Blanchet House of Hospitality",
      "address": "310 NW Glisan St. Portland, OR 97209",
      "phone": "Main Line: 503-241-4340",
      "description": "Free hot meals. No questions asked.",
      "hours": "Hours: 6:30-7:30 a.m. (breakfast), 11:30 a.m. -12:30 p.m. (lunch), 5-6 p.m. (dinner) Mon.- Sat.",
      "type": "Ready To Eat"
    },
    {
      "title": "Cityteam Portland",
      "address": "526 SE Grand Ave. Portland, OR 97214",
      "phone": "Main Line: 503-231-9334",
      "description": "Dining hall serving men, women and children.",
      "hours": "CLOSED",
      "type": "Ready To Eat"
    },
    {
      "title": "Clackamas Service Center",
      "address": "8800 SE 80th Ave. Portland, OR 97206",
      "phone": "Main Line: 503-771-7914",
      "description": "Hot meal.",
      "hours": "Lunch hours: 1-2 p.m. Tues., Thurs. Dinner hours: 5-6 p.m. Wed., 7-9 p.m. Fri., 5-7 p.m. Sat., 3-4 p.m. Sun.",
      "type": "Ready To Eat"
    },
    {
      "title": "Community Cafe St. Anthony Catholic Church",
      "address": "9905 SW McKenzie St. follow the signs for the entrance of community cafe Tigard, OR 97223",
      "phone": "Main Line: 503-639-4179",
      "description": "Free hot dinner.",
      "hours": "Doors open 5 p.m. Meal served 5:30-6:30 p.m. Sun.",
      "type": "Ready To Eat"
    },
    {
      "title": "Department of Human Services - Food Stamps (SNAP)",
      "address": "5300 NE Elam Young Pkwy. Ste. 110 Hillsboro, OR 97124",
      "phone": "Main Line: 503-693-4555",
      "description": "Hours: 8 a.m.-5 p.m. Mon.-Fri.",
      "hours": "Hours: 8 a.m.-5 p.m. Mon.-Fri.",
      "type": "Ready To Eat"
    },
    {
      "title": "Department of Human Services - Food Stamps (SNAP)",
      "address": "15425 NW Greenbrier Pkwy. Beaverton, OR 97006",
      "phone": "Main Line: 503-646-9952",
      "description": "Hours: 8 a.m.-5 p.m. Mon.-Fri.",
      "hours": "Hours: 8 a.m.-5 p.m. Mon.-Fri.",
      "type": "Ready To Eat"
    },
    {
      "title": "Department of Human Services - Food Stamps (SNAP)",
      "address": "10777 SW Cascade Ave. Tigard, OR 97223",
      "phone": "Main Line: 503-670-9711",
      "description": "Hours: 8 a.m.-5 p.m. Mon.-Fri.",
      "hours": "Hours: 8 a.m.-5 p.m. Mon.-Fri.",
      "type": "Ready To Eat"
    },
    {
      "title": "Faith Cafe",
      "address": "5150 SW Watson Ave. Beaverton, OR 97005",
      "phone": "",
      "description": "No ID required. Bag meals to-go. The meal will be a brown bag to go, distributed at the door at the covered walkway. We will start distributing the brown bags as soon as they are ready, as early as 4:15 PM. There will be no give away table or group gathering.",
      "hours": "Hours: 4:15 p.m. Sun. only",
      "type": "Ready To Eat"
    },
    {
      "title": "First Baptist Church",
      "address": "909 SW 11th Ave. Portland, OR 97205",
      "phone": "Main Line: 503-228-7465",
      "description": "Hot lunch hours: 2-4 p.m. Mon., Thurs.",
      "hours": "Hot lunch hours: 2-4 p.m. Mon., Thurs.",
      "type": "Ready To Eat"
    },
    {
      "title": "Grace Memorial Episcopal Church",
      "address": "1535 NE 17th Ave. Portland, OR 97232",
      "phone": "Main Line: 503-287-0418",
      "description": "Sack lunch hours: 11 a.m.-1 p.m. Tues.-Thurs. Dinner at 6 p.m. Fri. (Except June, July, August.)",
      "hours": "Sack lunch hours: 11 a.m.-1 p.m. Tues.-Thurs. Dinner at 6 p.m. Fri. (Except June, July, August.)",
      "type": "Ready To Eat"
    },
    {
      "title": "Hillsboro Comm. Senior Center",
      "address": "750 SE Eighth Ave. Hillsboro, OR 97123",
      "phone": "Main Line: 503-615-1090",
      "description": "Full-service lunch program, $5 per meal. Travel, wellness classes and recreational opportunities.",
      "hours": "CLOSED",
      "type": "Ready To Eat"
    },
    {
      "title": "Livingway Fellowship",
      "address": "39300 Durbarko Rd Sandy, OR 97055",
      "phone": "Main Line: 503-668-8088",
      "description": "(see Laundry Love Sandy) Laundry services with hot meal provided. Three free large loads with soap and fabric softener provided.",
      "hours": "Laundry (at Cedars Laundromat) and meal: 6-8 p.m. Second Tues. Meal only at Fellowship: 5:45-6:30 p.m. first and third Wed., Sept.-May. Hot Breakfast 8:30-10:30 a.m. Sun,",
      "type": "Ready To Eat"
    },
    {
      "title": "Meals On Wheels People",
      "address": "7710 SW 31st Ave. Portland, OR 97219",
      "phone": "Main Line: 503-736-6325",
      "description": "Senior nutrition program for 60 and older. Home delivery, dozens of neighborhood locations. Meals served at noon. Serves Clark, Wash. and Mult. cos.",
      "hours": "",
      "type": "Ready To Eat"
    },
    {
      "title": "Operation Nightwatch",
      "address": "8800 SE 80th Ave. Portland, OR 97206",
      "phone": "Main Line: 503-220-0439",
      "description": "Southeast Hospitality Center: Meals, supplies, showers on Saturdays. They will issue a statement each Wednesday afternoon with updates on our plans for service during the next weekend. The weekly statement will be posted on our website, through our social media accounts, and directly through our E-Newsletter.",
      "hours": "Hours: 7-9 p.m. Fri., 5-8 p.m. Sat.",
      "type": "Ready To Eat"
    },
    {
      "title": "Operation Nightwatch",
      "address": "1432 SW 13th Ave. Portland, OR 97201",
      "phone": "Main Line: 503-220-0438",
      "description": "Sandwiches and games. Drop-in.",
      "hours": "CLOSED",
      "type": "Ready To Eat"
    },
    {
      "title": "Parkrose Community Kitchen",
      "address": "12505 NE Halsey St. Portland, OR 97230",
      "phone": "",
      "description": "Dinner every Tues. night from November through April.",
      "hours": "Hours: 6-7 p.m. Tues.",
      "type": "Ready To Eat"
    },
    {
      "title": "Portland Rescue Mission, New Life Recovery",
      "address": "111 W Burnside St. Portland, OR 97209",
      "phone": "Main Line: 503-906-7690",
      "description": "Two daily meals, sermon not required.",
      "hours": "Hours: 7 a.m. Mon.-Sun. breakfast; 6 p.m. Mon.-Sun. dinner; 12:30 p.m. Sat.-Sun. lunch.",
      "type": "Ready To Eat"
    },
    {
      "title": "Potluck In The Park",
      "address": "NW Eighth and NW Glisan St Portland, OR 97209",
      "phone": "Main Line: 503-255-7611",
      "description": "Hot meal on Sundays. Pet food also. Hours: Meal tickets given out at noon. Meal begins: 3 p.m. Website has latest details.",
      "hours": "Website has latest details.",
      "type": "Ready To Eat"
    },
    {
      "title": "Rahabs Sisters",
      "address": "247 SE 82nd Ave. Portland, OR 97215",
      "phone": "",
      "description": "Friday night community for those who identify as women or whose gender identity makes them vulnerable. Meals and personal hygiene supplies.",
      "hours": "Coffee hours: 5-7 p.m. Fri. Dinner hours: 7-10 p.m.",
      "type": "Ready To Eat"
    },
    {
      "title": "Rose Haven",
      "address": "627 NW 18th Ave. Portland, OR 97209",
      "phone": "",
      "description": "Nutritious meals provided to women and their children. At-the-door support: food, water, emergency clothing, diapers, wipes, hygiene products, mail service, pet food, outdoor supplies as they last until further notice.",
      "hours": "Hours: 8:30 a.m.-noon, 1-4 p.m. Mon.-Fri. 3 p.m. closure Wed.",
      "type": "Ready To Eat"
    },
    {
      "title": "Salvation Army",
      "address": "473 SE 194th Ave. Portland, OR 97233",
      "phone": "Main Line: 503-661-8972",
      "description": "Free nightly meals for children 0-18 years. Only on school nights, based on Reynolds School District calendar.",
      "hours": "Hours: 5:30-6 p.m. Mon.-Fri.",
      "type": "Ready To Eat"
    },
    {
      "title": "Salvation Army",
      "address": "351 SE Oak St. Hillsboro, OR 97123",
      "phone": "Main Line: 503-640-4311",
      "description": "Sack lunches.",
      "hours": "Hours: 9 a.m.-noon Mon., Tues., Thurs., Fri.",
      "type": "Ready To Eat"
    },
    {
      "title": "Sandy Assembly of God",
      "address": "39800 East Hwy 26 Sandy, OR 97055",
      "phone": "Main Line: 503-668-5589",
      "description": "Hot meal on 3rd Monday of the Month & Food Boxes, as supplies last",
      "hours": "Hours: 6 p.m. 3rd Mon.",
      "type": "Ready To Eat"
    },
    {
      "title": "Sisters Of The Road Cafe",
      "address": "133 NW Sixth Ave. Portland, OR 97209",
      "phone": "Main Line: 503-222-5694",
      "description": "Nonprofit cafe and community organizing space for radical human and economic rights. Meals served for $1.50 cash, Oregon Trail Card or barter work.",
      "hours": "Reserve a meal after 9:15 a.m. Cafe hours: 10 a.m.-2 p.m. Tues.-Sat.",
      "type": "Ready To Eat"
    },
    {
      "title": "St. Andre Bessette",
      "address": "601 W Burnside St. Portland, OR 97209",
      "phone": "Main Line: 503-228-0746",
      "description": "Warm meals, hot beverages. Be in line by 9:30 a.m. Tues.-Thurs.",
      "hours": "Opens: 7 a.m. (no more entries after 8 p.m.) Fri.",
      "type": "Ready To Eat"
    },
    {
      "title": "St. Francis Dining Hall",
      "address": "320 SE 11th Ave. (Lower Level) Portland, OR 97214",
      "phone": "Main Line: 503-234-2028",
      "description": "Dinner served 5 p.m. Mon.-Thurs. Lunch served 12:30 p.m. Fridays only. Supper served 2 p.m. Sun. Sunday hours: 11:30 a.m.-4 p.m.",
      "hours": "Dinner served 5 p.m. Mon.-Thurs. Lunch served 12:30 p.m. Fridays only. Supper served 2 p.m. Sun. Sunday hours: 11:30 a.m.-4 p.m.",
      "type": "Ready To Eat"
    },
    {
      "title": "St. Francis Food Pantry - Hope Diner/Shelter",
      "address": "15659 SW Oregon St. Sherwood, OR 97140",
      "phone": "Main Line: 503-625-7067",
      "description": "Warm meal for Sherwood, Tigard, Tualatin residents.",
      "hours": "Free hot meal hours: 5-6 p.m. Sun.",
      "type": "Ready To Eat"
    },
    {
      "title": "St. Johns Episcopal Church",
      "address": "2036 SE Jefferson St. Milwaukie, OR 97222",
      "phone": "Main Line: 503-653-5880",
      "description": "Meal service ministry.",
      "hours": "Hours: 2:15 p.m. Sun.",
      "type": "Ready To Eat"
    },
    {
      "title": "St. Michael & All Angels Church",
      "address": "1704 NE 43rd Ave. Portland, OR 97213",
      "phone": "Main Line: 503-284-7141",
      "description": "Spaghetti lunch hours: 11:30 a.m.-12:30 p.m. last Sat. Mixed menu hours: 11:30 a.m.-12:30 p.m. 2nd Sat.",
      "hours": "Spaghetti lunch hours: 11:30 a.m.-12:30 p.m. last Sat. Mixed menu hours: 11:30 a.m.-12:30 p.m. 2nd Sat.",
      "type": "Ready To Eat"
    },
    {
      "title": "St. Philip the Deacon Episcopal",
      "address": "120 NE Knott St. Portland, OR 97212",
      "phone": "Main Line: 503-281-5802",
      "description": "Meal hours: 11 a.m.-1 p.m. Sat. (Closed 5th Sat.)",
      "hours": "Meal hours: 11 a.m.-1 p.m. Sat. (Closed 5th Sat.)",
      "type": "Ready To Eat"
    },
    {
      "title": "St. Stephens Episcopal Church",
      "address": "1432 SW 13th Ave. Portland, OR 97201",
      "phone": "Main Line: 503-223-6424",
      "description": "Soup and sandwich hours: 10:30-11:30 a.m. Mon., Fri. 11:45 a.m.-12:30 p.m. Tues. Hot breakfast hours: 7:30-10 a.m. Sat.",
      "hours": "Soup and sandwich hours: 10:30-11:30 a.m. Mon., Fri. 11:45 a.m.-12:30 p.m. Tues. Hot breakfast hours: 7:30-10 a.m. Sat.",
      "type": "Ready To Eat"
    },
    {
      "title": "St. Vincent de Paul Clackamas Co.",
      "address": "297 NW Broadway St. Estacada, OR 97023",
      "phone": "Main Line: 503-630-2416",
      "description": "Free lunches.",
      "hours": "Hours: 11 a.m.-1 p.m. First and third Thurs.",
      "type": "Ready To Eat"
    },
    {
      "title": "The Canby Center",
      "address": "681 SW Second Ave. Canby, OR",
      "phone": "Main Line: 503-266-2920",
      "description": "Free hot lunch.",
      "hours": "Hours: 11 a.m.-1 p.m. Mon.-Thurs.",
      "type": "Ready To Eat"
    },
    {
      "title": "Trinity Episcopal Cathedral",
      "address": "147 NW 19th Ave. Portland, OR 97209",
      "phone": "Main Line: 503-478-1210",
      "description": "Hot community meal hours: 11 a.m.-1 p.m. Wed.",
      "hours": "Hot community meal hours: 11 a.m.-1 p.m. Wed.",
      "type": "Ready To Eat"
    },
    {
      "title": "Union Gospel Mission",
      "address": "3 NW Third Ave. Portland, OR 97209",
      "phone": "Main Line: 503-274-4483",
      "description": "Sack lunches: 7 a.m. Mon., Tues., Thurs. Clothing (upon availability) hours: 4-5 p.m. Tues.- Fri. Hot lunch, snacks, other services hours: 10-11:30 a.m. Tues.-Thurs., 10-11:15 a.m. Fri., 2-3:45 p.m. Tues.-Sat. Chapel and hot dinner hours: 7:10-8:30 p.m. Tues.-Fri. Breakfast hours: 6:30 a.m. Wed., Fri. Snacks and services hours: 2-4 p.m. Sat. Thanksgiving day dinner: 10 a.m.-1 p.m.",
      "hours": "Sack lunches: 7 a.m. Mon., Tues., Thurs. Clothing (upon availability) hours: 4-5 p.m. Tues.- Fri. Hot lunch, snacks, other services hours: 10-11:30 a.m. Tues.-Thurs., 10-11:15 a.m. Fri., 2-3:45 p.m. Tues.-Sat. Chapel and hot dinner hours: 7:10-8:30 p.m. Tues.-Fri. Breakfast hours: 6:30 a.m. Wed., Fri. Snacks and services hours: 2-4 p.m. Sat. Thanksgiving day dinner: 10 a.m.-1 p.m.",
      "type": "Ready To Eat"
    },
    {
      "title": "Women of Wisdom",
      "address": "12550 SW Second St. Beaverton, OR 97005",
      "phone": "Main Line: 503-846-3555",
      "description": "Provides monthly healthy food benefits, growth monitoring and referral to other programs for pregnant and post-partum women, infants and children up to age 5.",
      "hours": "Phone hours: 8:30- 11:50 a.m., 1-6:30 p.m. Mon.; 8:30-11:50 a.m., 1-4:30 p.m. Tues.-Thurs.",
      "type": "Ready To Eat"
    },
    {
      "title": "Women of Wisdom",
      "address": "7360 SW Hunziker St. Tigard, OR 97223",
      "phone": "Main Line: 503-846-3555",
      "description": "Provides monthly healthy food benefits, growth monitoring and referral to other programs for pregnant and post-partum women, infants and children up to age 5.",
      "hours": "Phone hours: 8:30- 11:50 a.m., 1-6:30 p.m. Mon.; 8:30-11:50 a.m., 1-4:30 p.m. Tues.-Thurs.",
      "type": "Ready To Eat"
    },
    {
      "title": "Women of Wisdom",
      "address": "254 N First Ave Hillsboro, OR 97124",
      "phone": "Main Line: 503-846-3555",
      "description": "Provides monthly healthy food benefits, growth monitoring and referral to other programs for pregnant and post-partum women, infants and children up to age 5.",
      "hours": "Phone hours: 8:30- 11:50 a.m., 1-6:30 p.m. Mon.; 8:30-11:50 a.m., 1-4:30 p.m. Tues.-Thurs.",
      "type": "Ready To Eat"
    },
    {
      "title": "Zarephath Ministries",
      "address": "59 NW Ava Ave. (enter through parking lot door) Gresham, OR 97030",
      "phone": "Main Line: 503-667-2692",
      "description": "CLOSED",
      "hours": "CLOSED",
      "type": "Ready To Eat"
    },
    {
      "title": "Zarephath Pantry",
      "address": "190 SW Third Ave. Canby, OR 97013",
      "phone": "Contact: 503-266-4061",
      "description": "Meals. Pick up boxed meals 5-6:30 p.m. Tues.",
      "hours": "Hours: 5-6:30 p.m. Tues.",
      "type": "Ready To Eat"
    }
  ]
}
